Hello from ESP32 at: 498994
{"gps":$GNGGA,141905.000,1258.41714,N,07909.85655,E,1,05,6.0,-1.1,M,0.0,M,,*51,"DateTime":20250224194904}
{"gps":$GNGGA,141906.000,1258.41674,N,07909.85763,E,1,05,6.0,0.8,M,0.0,M,,*74,"DateTime":20250224194905}
{"gps":$GNGGA,141907.000,1258.41590,N,07909.85825,E,1,05,6.0,4.9,M,0.0,M,,*74,"DateTime":20250224194906}
{"gps":$GNGGA,141908.000,1258.41566,N,07909.85865,E,1,06,3.2,6.2,M,0.0,M,,*7B,"DateTime":20250224194907}
{"gps":$GNGGA,141909.000,1258.41537,N,07909.85904,E,1,06,3.2,7.5,M,0.0,M,,*7E,"DateTime":20250224194908}
{"gps":$GNGGA,141910.000,1258.41505,N,07909.85942,E,1,06,3.2,8.9,M,0.0,M,,*76,"DateTime":20250224194909}
{"gps":$GNGGA,141911.000,1258.41472,N,07909.85975,E,1,06,3.2,10.2,M,0.0,M,,*40,"DateTime":20250224194910}
{"gps":$GNGGA,141912.000,1258.41435,N,07909.86013,E,1,06,3.2,11.5,M,0.0,M,,*4C,"DateTime":20250224194911}
{"gps":$GNGGA,141913.000,1258.41605,N,07909.86119,E,1,07,2.9,0.0,M,0.0,M,,*79,"DateTime":20250224194913}
{"gps":$GNGGA,141914.000,1258.41560,N,07909.86159,E,1,07,2.9,0.0,M,0.0,M,,*7A,"DateTime":20250224194914}
{"gps":$GNGGA,141915.000,1258.41526,N,07909.86207,E,1,07,2.9,-0.0,M,0.0,M,,*5C,"DateTime":20250224194915}
{"gps":$GNGGA,141916.000,1258.41493,N,07909.86255,E,1,07,2.9,0.0,M,0.0,M,,*7A,"DateTime":20250224194916}
{"gps":$GNGGA,141917.000,1258.41484,N,07909.86286,E,1,06,3.3,0.0,M,0.0,M,,*79,"DateTime":20250224194917}
{"gps":$GNGGA,141918.000,1258.41490,N,07909.86ó,"DateTime":20250224194919}
{"gps":$GNGGA,141920.133,,,,,0,00,25.5,,,,,,*74,"DateTime":20250224194921}
{"gps":$GNGGA,141921.000,,,,,0,00,25.5,,,,,,*74,"DateTime":20250224194921}
{"gps":$GNGGA,141922.000,,,,,0,00,25.5,,,,,,*77,"DateTime":20250224194922}
{"gps":$GNGGA,141923.000,,,,,0,00,25.5,,,,,,*76,"DateTime":20250224194923}
{"gps":$GNGGA,141924.000,,,,,0,00,25.5,,,,,,*71,"DateTime":20250224194924}
{"gps":$GNGGA,141925.000,,,,,0,00,25.5,,,,,,*70,"DateTime":20250224194925}
{"gps":$GNGGA,141926.000,,,,,0,00,25.5,,,,,,*73,"DateTime":20250224194926}
{"gps":$GNGGA,141927.000,,,,,0,00,25.5,,,,,,*72,"DateTime":20250224194927}
{"gps":$GNGGA,141928.000,,,,,0,00,25.5,,,,,,*7D,"DateTime":20250224194929}
{"gps":$GNGGA,141929.000,,,,,0,00,25.5,,,,,,*7C,"DateTime":20250224194929}
{"gps":$GNGGA,141930.000,,,,,0,00,25.5,,,,,,*74,"DateTime":20250224194930}
{"gps":$GNGGA,141931.000,,,,,0,00,25.5,,,,,,*75,"DateTime":20250224194931}
{"gps":$GNGGA,141932.000,,,,,0,00,25.5,,,,,,*76,"DateTime":20250224194932}
{"gps":$GNGGA,141933.000,,,,,0,00,25.5,,,,,,*77,"DateTime":20250224194933}
{"gps":$GNGGA,141934.000,,,,,0,00,25.5,,,,,,*70,"DateTime":20250224194934}
{"gps":$GNGGA,141935.000,,,,,0,00,25.5,,,,,,*71,"DateTime":20250224194935}
{"gps":$GNGGA,141936.000,,,,,0,00,25.5,,,,,,*72,"DateTime":20250224194936}
{"gps":$GNGGA,141937.000,,,,,0,00,25.5,,,,,,*73,"DateTime":20250224194937}
{"gps":$GNGGA,141938.000,,,,,0,00,25.5,,,,,,*7C,"DateTime":20250224194938}
{"gps":$GNGGA,141939.000,,,,,0,00,25.5,,,,,,*7D,"DateTime":20250224194939}
{"gps":$GNGGA,141940.000,,,,,0,00,25.5,,,,,,*73,"DateTime":20250224194940}
{"gps":$GNGGA,141941.000,,,,,0,00,25.5,,,,,,*72,"DateTime":20250224194941}
{"gps":$GNGGA,141942.000,,,,,0,00,25.5,,,,,,*71,"DateTime":20250224194942}
{"gps":$GNGGA,141943.000,,,,,0,00,25.5,,,,,,*70,"DateTime":20250224194943}
{"gps":$GNGGA,141944.000,,,,,0,00,25.5,,,,,,*77,"DateTime":20250224194944}
{"gps":$GNGGA,141945.000,,,,,0,00,25.5,,,,,,*76,"DateTime":20250224194945}
{"gps":$GNGGA,141946.000,,,,,0,00,25.5,,,,,,*75,"DateTime":20250224194946}
{"gps":$GNGGA,141947.000,,,,,0,00,25.5,,,,,,*74,"DateTime":20250224194947}
{"gps":$GNGGA,141948.000,,,,,0,00,25.5,,,,,,*7B,"DateTime":20250224194949}
{"gps":$GNGGA,141949.000,,,,,0,00,25.5,,,,,,*7A,"DateTime":20250224194950}
{"gps":$GNGGA,141950.000,,,,,0,00,25.5,,,,,,*72,"DateTime":20250224194950}
{"gps":$GNGGA,141951.000,,,,,0,00,25.5,,,,,,*73,"DateTime":20250224194951}
{"gps":$GNGGA,141952.000,,,,,0,00,25.5,,,,,,*70,"DateTime":20250224194952}
{"gps":$GNGGA,141954.797,,,,,0,00,25.5,,,,,,*7F,"DateTime":20250224194955}
{"gps":$GNGGA,141955.997,,,,,0,00,25.5,,,,,,*70,"DateTime":20250224194956}
{"gps":$GNGGA,141957.000,,,,,0,00,25.5,,,,,,*75,"DateTime":20250224194957}
{"gps":$GNGGA,141958.000,,,,,0,00,25.5,,,,,,*7A,"DateTime":20250224194958}
{"gps":$GNGGA,141959.000,,,,,0,00,25.5,,,,,,*7B,"DateTime":20250224194959}
{"gps":$GNGGA,142000.000,,,,,0,00,25.5,,,,,,*7D,"DateTime":20250224195000}
{"gps":$GNGGA,142001.000,,,,,0,00,25.5,,,,,,*7C,"DateTime":20250224195001}
{"gps":$GNGGA,142002.000,,,,,0,00,25.5,,,,,,*7F,"DateTime":20250224195002}
{"gps":$GNGGA,142003.000,,,,,0,00,25.5,,,,,,*7E,"DateTime":20250224195003}
{"gps":$GNGGA,142004.000,,,,,0,00,25.5,,,,,,*79,"DateTime":20250224195004}
{"gps":$GNGGA,142005.000,,,,,0,00,25.5,,,,,,*78,"DateTime":20250224195005}
{"gps":$GNGGA,142006.000,,,,,0,00,25.5,,,,,,*7B,"DateTime":20250224195006}
{"gps":$GNGGA,142007.000,,,,,0,00,25.5,,,,,,*7A,"DateTime":20250224195007}
{"gps":$GNGGA,,,,,,0,00,25.5,,,,,,*64,"DateTime":20250224195221}
{"gps":$GNGGA,,,,,,0,00,25.5,,,,,,*64,"DateTime":20250224195249}
{"gps":$GNGGA,,,,,,0,00,25.5,,,,,,*64,"DateTime":20250224195250}
{"gps":$GNGGA,,,,,,0,00,25.5,,,,,,*64,"DateTime":20250224195251}
{"gps":$GNGGA,,,,,,0,00,25.5,,,,,,*64,"DateTime":20250224195253}
{"gps":$GNGGA,,,,,,0,00,25.5,,,,,,*64,"DateTime":20250224195254}
{"gps":$GNGGA,,,,,,0,00,25.5,,,,,,*64,"DateTime":20250224195255}
{"gps":$GNGGA,,,,,,0,00,25.5,,,,,,*64,"DateTime":20250224195256}
{"gps":$GNGGA,,,,,,0,00,25.5,,,,,,*64,"DateTime":20250224195344}
{"gps":$GNGGA,,,,,,0,00,25.5,,,,,,*64,"DateTime":20250224195345}
{"gps":$GNGGA,,,,,,0,00,25.5,,,,,,*64,"DateTime":20250224195346}
{"gps":$GNGGA,,,,,,0,00,25.5,,,,,,*64,"DateTime":20250224195347}
{"gps":$GNGGA,,,,,,0,00,25.5,,,,,,*64,"DateTime":20250224195348}
{"gps":$GNGGA,,,,,,0,00,25.5,,,,,,*64,"DateTime":20250224195349}
{"gps":$GNGGA,,,,,,0,00,25.5,,,,,,*64,"DateTime":20250224195349}
{"gps":$GNGGA,,,,,,0,00,25.5,,,,,,*64,"DateTime":20250224195351}
{"gps":$GNGGA,,,,,,0,00,25.5,,,,,,*64,"DateTime":20250224195352}
{"gps":$GNGGA,,,,,,0,00,25.5,,,,,,*64,"DateTime":20250224195353}
{"gps":$GNGGA,,,,,,0,00,25.5,,,,,,*64,"DateTime":20250224195354}
{"gps":$GNGGA,,,,,,0,00,25.5,,,,,,*64,"DateTime":20250224195354}
{"gps":$GNGGA,,,,,,0,00,25.5,,,,,,*64,"DateTime":20250224195356}
{"gps":$GNGGA,,,,,,0,00,25.5,,,,,,*64,"DateTime":20250224195357}
{"gps":$GNGGA,,,,,,0,00,25.5,,,,,,*64,"DateTime":20250224195358}
{"gps":$GNGGA,,,,,,0,00,25.5,,,,,,*64,"DateTime":20250224195359}
{"gps":$GNGGA,,,,,,0,00,25.5,,,,,,*64,"DateTime":20250224195359}
{"gps":$GNGGA,,,,,,0,00,25.5,,,,,,*64,"DateTime":20250224195401}
{"gps":$GNGGA,,,,,,0,00,25.5,,,,,,*64,"DateTime":20250224195402}
{"gps":$GNGGA,,,,,,0,00,25.5,,,,,,*64,"DateTime":20250224195521}
{"gps":$GNGGA,,,,,,0,00,25.5,,,,,,*64,"DateTime":20250224195522}
{"gps":$GNGGA,,,,,,0,00,25.5,,,,,,*64,"DateTime":20250224195523}
{"gps":$GNGGA,,,,,,0,00,25.5,,,,,,*64,"DateTime":20250224195524}
{"gps":$GNGGA,,,,,,0,00,25.5,,,,,,*64,"DateTime":20250224195525}
{"gps":$GNGGA,,,,,,0,00,25.5,,,,,,*64,"DateTime":20250224195526}
{"gps":$GNGGA,,,,,,0,00,25.5,,,,,,*64,"DateTime":20250224195527}
{"gps":$GNGGA,,,,,,0,00,25.5,,,,,,*64,"DateTime":20250224195528}
{"gps":$GNGGA,,,,,,0,00,25.5,,,,,,*64,"DateTime":20250224195529}
{"gps":$GNGGA,,,,,,0,00,25.5,,,,,,*64,"DateTime":20250224195530}
{"gps":$GNGGA,,,,,,0,00,25.5,,,,,,*64,"DateTime":20250224195531}
{"gps":$GNGGA,,,,,,0,00,25.5,,,,,,*64,"DateTime":20250224195532}
{"gps":$GNGGA,,,,,,0,00,25.5,,,,,,*64,"DateTime":20250224195533}
{"gps":$GNGGA,,,,,,0,00,25.5,,,,,,*64,"DateTime":20250224195534}
{"gps":$GNGGA,,,,,,0,00,25.5,,,,,,*64,"DateTime":20250224195535}
{"gps":$GNGGA,,,,,,0,00,25.5,,,,,,*64,"DateTime":20250224195536}
{"gps":$GNGGA,,,,,,0,00,25.5,,,,,,*64,"DateTime":20250224195537}
{"gps":$GNGGA,,,,,,0,00,25.5,,,,,,*64,"DateTime":20250224195538}
{"gps":$GNGGA,,,,,,0,00,25.5,,,,,,*64,"DateTime":20250224195539}
{"gps":$GNGGA,,,,,,0,00,25.5,,,,,,*64,"DateTime":20250224195540}
{"gps":$GNGGA,,,,,,0,00,25.5,,,,,,*64,"DateTime":20250224195629}
{"gps":$GNGGA,,,,,,0,00,25.5,,,,,,*64,"DateTime":20250224195631}
{"gps":$GNGGA,,,,,,0,00,25.5,,,,,,*64,"DateTime":20250224195633}
{"gps":$GNGGA,,,,,,0,00,25.5,,,,,,*64,"DateTime":20250224195635}
{"gps":$GNGGA,,,,,,0,00,25.5,,,,,,*64,"DateTime":20250224195637}
{"gps":$GNGGA,,,,,,0,00,25.5,,,,,,*64,"DateTime":20250224195639}
{"gps":$GNGGA,,,,,,0,00,25.5,,,,,,*64,"DateTime":20250224195640}
{"gps":$GNGGA,,,,,,0,00,25.5,,,,,,*64,"DateTime":20250224195642}
{"gps":$GNGGA,,,,,,0,00,25.5,,,,,,*64,"DateTime":20250224195644}
{"gps":$GNGGA,,,,,,0,00,25.5,,,,,,*64,"DateTime":20250224195645}
{"gps":$GNGGA,,,,,,0,00,25.5,,,,,,*64,"DateTime":20250224195647}
{"gps":$GNGGA,,,,,,0,00,25.5,,,,,,*64,"DateTime":20250224195649}
{"gps":$GNGGA,,,,,,0,00,25.5,,,,,,*64,"DateTime":20250224195651}
{"gps":$GNGGA,,,,,,0,00,25.5,,,,,,*64,"DateTime":20250224195653}
{"gps":$GNGGA,,,,,,0,00,25.5,,,,,,*64,"DateTime":20250224195655}
{"gps":$GNGGA,,,,,,0,00,25.5,,,,,,*64,"DateTime":20250224195657}
{"gps":$GNGGA,,,,,,0,00,25.5,,,,,,*64,"DateTime":20250224195659}
{"gps":$GNGGA,,,,,,0,00,25.5,,,,,,*64,"DateTime":20250224195701}
{"gps":$GNGGA,,,,,,0,00,25.5,,,,,,*64,"DateTime":20250224195703}
{"gps":$GNGGA,,,,,,0,00,25.5,,,,,,*64,"DateTime":20250224195705}
{"gps":$GNGGA,,,,,,0,00,25.5,,,,,,*64,"DateTime":20250224195708}
{"gps":$GNGGA,,,,,,0,00,25.5,,,,,,*64,"DateTime":20250224195709}
{"gps":$GNGGA,,,,,,0,00,25.5,,,,,,*64,"DateTime":20250224195711}
{"gps":$GNGGA,,,,,,0,00,25.5,,,,,,*64,"DateTime":20250224195713}
{"gps":$GNGGA,,,,,,0,00,25.5,,,,,,*64,"DateTime":20250224195714}
{"gps":$GNGGA,,,,,,0,00,25.5,,,,,,*64,"DateTime":20250224195716}
{"gps":$GNGGA,,,,,,0,00,25.5,,,,,,*64,"DateTime":20250224195718}
{"gps":$GNGGA,,,,,,0,00,25.5,,,,,,*64,"DateTime":20250224195719}
{"gps":$GNGGA,,,,,,0,00,25.5,,,,,,*64,"DateTime":20250224195721}
{"gps":$GNGGA,,,,,,0,00,25.5,,,,,,*64,"DateTime":20250224195723}
{"gps":$GNGGA,,,,,,0,00,25.5,,,,,,*64,"DateTime":20250224195725}
{"gps":$GNGGA,,,,,,0,00,25.5,,,,,,*64,"DateTime":20250224195727}
{"gps":$GNGGA,,,,,,0,00,25.5,,,,,,*64,"DateTime":20250224195729}
{"gps":$GNGGA,,,,,,0,00,25.5,,,,,,*64,"DateTime":20250224195731}
{"gps":$GNGGA,,,,,,0,00,25.5,,,,,,*64,"DateTime":20250224195733}
{"gps":$GNGGA,,,,,,0,00,25.5,,,,,,*64,"DateTime":20250224195735}
{"gps":$GNGGA,,,,,,0,00,25.5,,,,,,*64,"DateTime":20250224195737}
{"gps":$GNGGA,,,,,,0,00,25.5,,,,,,*64,"DateTime":20250224195739}
{"gps":$GNGGA,,,,,,0,00,25.5,,,,,,*64,"DateTime":20250224195741}
{"gps":$GNGGA,,,,,,0,00,25.5,,,,,,*64,"DateTime":20250224195743}
{"gps":$GNGGA,,,,,,0,00,25.5,,,,,,*64,"DateTime":20250224195745}
{"gps":$GNGGA,,,,,,0,00,25.5,,,,,,*64,"DateTime":20250224195747}
{"gps":$GNGGA,,,,,,0,00,25.5,,,,,,*64,"DateTime":20250224195748}
{"gps":$GNGGA,,,,,,0,00,25.5,,,,,,*64,"DateTime":20250224195750}
{"gps":$GNGGA,,,,,,0,00,25.5,,,,,,*64,"DateTime":20250224195752}
{"gps":$GNGGA,,,,,,0,00,25.5,,,,,,*64,"DateTime":20250224195754}
{"gps":$GNGGA,,,,,,0,00,25.5,,,,,,*64,"DateTime":20250224195756}
{"gps":$GNGGA,,,,,,0,00,25.5,,,,,,*64,"DateTime":20250224195758}
{"gps":$GNGGA,,,,,,0,00,25.5,,,,,,*64,"DateTime":20250224195800}
{"gps":$GNGGA,,,,,,0,00,25.5,,,,,,*64,"DateTime":20250224195802}
{"gps":$GNGGA,,,,,,0,00,25.5,,,,,,*64,"DateTime":20250224195804}
{"gps":$GNGGA,,,,,,0,00,25.5,,,,,,*64,"DateTime":20250224195805}
{"gps":$GNGGA,,,,,,0,00,25.5,,,,,,*64,"DateTime":20250224195806}
{"gps":$GNGGA,,,,,,0,00,25.5,,,,,,*64,"DateTime":20250224195806}
{"gps":$GNGGA,,,,,,0,00,25.5,,,,,,*64,"DateTime":20250224195808}
{"gps":$GNGGA,,,,,,0,00,25.5,,,,,,*64,"DateTime":20250224195809}
{"gps":$GNGGA,,,,,,0,00,25.5,,,,,,*64,"DateTime":20250224195810}
{"gps":$GNGGA,,,,,,0,00,25.5,,,,,,*64,"DateTime":20250224195810}
{"gps":$GNGGA,,,,,,0,00,25.5,,,,,,*64,"DateTime":20250224195811}
{"gps":$GNGGA,,,,,,0,00,25.5,,,,,,*64,"DateTime":20250224195813}
{"gps":$GNGGA,,,,,,0,00,25.5,,,,,,*64,"DateTime":20250224195814}
{"gps":$GNGGA,,,,,,0,00,25.5,,,,,,*64,"DateTime":20250224195815}
{"gps":$GNGGA,,,,,,0,00,25.5,,,,,,*64,"DateTime":20250224195815}
{"gps":$GNGGA,,,,,,0,00,25.5,,,,,,*64,"DateTime":20250224195816}
{"gps":$GNGGA,,,,,,0,00,25.5,,,,,,*64,"DateTime":20250224195818}
{"gps":$GNGGA,,,,,,0,00,25.5,,,,,,*64,"DateTime":20250224195818}
{"gps":$GNGGA,,,,,,0,00,25.5,,,,,,*64,"DateTime":20250224195820}
{"gps":$GNGGA,,,,,,0,00,25.5,,,,,,*64,"DateTime":20250224195821}
{"gps":$GNGGA,,,,,,0,00,25.5,,,,,,*64,"DateTime":20250224195821}
{"gps":$GNGGA,,,,,,0,00,25.5,,,,,,*64,"DateTime":20250224195823}
{"gps":$GNGGA,,,,,,0,00,25.5,,,,,,*64,"DateTime":20250224195823}
{"gps":$GNGGA,,,,,,0,00,25.5,,,,,,*64,"DateTime":20250224195825}
{"gps":$GNGGA,,,,,,0,00,25.5,,,,,,*64,"DateTime":20250224195825}
{"gps":$GNGGA,,,,,,0,00,25.5,,,,,,*64,"DateTime":20250224195827}
{"gps":$GNGGA,,,,,,0,00,25.5,,,,,,*64,"DateTime":20250224195828}
{"gps":$GNGGA,,,,,,0,00,25.5,,,,,,*64,"DateTime":20250224195828}
{"gps":$GNGGA,,,,,,0,00,25.5,,,,,,*64,"DateTime":20250224195830}
{"gps":$GNGGA,,,,,,0,00,25.5,,,,,,*64,"DateTime":20250224195831}
{"gps":$GNGGA,,,,,,0,00,25.5,,,,,,*64,"DateTime":20250224195832}
{"gps":$GNGGA,,,,,,0,00,25.5,,,,,,*64,"DateTime":20250224195832}
{"gps":$GNGGA,,,,,,0,00,25.5,,,,,,*64,"DateTime":20250224195833}
{"gps":$GNGGA,,,,,,0,00,25.5,,,,,,*64,"DateTime":20250224195835}
{"gps":$GNGGA,,,,,,0,00,25.5,,,,,,*64,"DateTime":20250224195836}
{"gps":$GNGGA,,,,,,0,00,25.5,,,,,,*64,"DateTime":20250224195837}
{"gps":$GNGGA,,,,,,0,00,25.5,,,,,,*64,"DateTime":20250224195837}
{"gps":$GNGGA,,,,,,0,00,25.5,,,,,,*64,"DateTime":20250224195838}
{"gps":$GNGGA,,,,,,0,00,25.5,,,,,,*64,"DateTime":20250224195840}
{"gps":$GNGGA,,,,,,0,00,25.5,,,,,,*64,"DateTime":20250224195841}
{"gps":$GNGGA,,,,,,0,00,25.5,,,,,,*64,"DateTime":20250224195842}
{"gps":$GNGGA,,,,,,0,00,25.5,,,,,,*64,"DateTime":20250224195842}
{"gps":$GNGGA,,,,,,0,00,25.5,,,,,,*64,"DateTime":20250224195843}
{"gps":$GNGGA,,,,,,0,00,25.5,,,,,,*64,"DateTime":20250224195845}
{"gps":$GNGGA,,,,,,0,00,25.5,,,,,,*64,"DateTime":20250224195846}
{"gps":$GNGGA,,,,,,0,00,25.5,,,,,,*64,"DateTime":20250224195847}
{"gps":$GNGGA,,,,,,0,00,25.5,,,,,,*64,"DateTime":20250224195847}
{"gps":$GNGGA,,,,,,0,00,25.5,,,,,,*64,"DateTime":20250224195849}
{"gps":$GNGGA,,,,,,0,00,25.5,,,,,,*64,"DateTime":20250224195850}
{"gps":$GNGGA,,,,,,0,00,25.5,,,,,,*64,"DateTime":20250224195850}
{"gps":$GNGGA,,,,,,0,00,25.5,,,,,,*64,"DateTime":20250224195852}
{"gps":$GNGGA,,,,,,0,00,25.5,,,,,,*64,"DateTime":20250224195853}
{"gps":$GNGGA,,,,,,0,00,25.5,,,,,,*64,"DateTime":20250224195854}
{"gps":$GNGGA,,,,,,0,00,25.5,,,,,,*64,"DateTime":20250224195854}
{"gps":$GNGGA,,,,,,0,00,25.5,,,,,,*64,"DateTime":20250224195855}
{"gps":$GNGGA,,,,,,0,00,25.5,,,,,,*64,"DateTime":20250224195857}
{"gps":$GNGGA,,,,,,0,00,25.5,,,,,,*64,"DateTime":20250224195858}
{"gps":$GNGGA,,,,,,0,00,25.5,,,,,,*64,"DateTime":20250224195859}
{"gps":$GNGGA,,,,,,0,00,25.5,,,,,,*64,"DateTime":20250224195859}
{"gps":$GNGGA,,,,,,0,00,25.5,,,,,,*64,"DateTime":20250224195900}
{"gps":$GNGGA,,,,,,0,00,25.5,,,,,,*64,"DateTime":20250224195902}
{"gps":$GNGGA,,,,,,0,00,25.5,,,,,,*64,"DateTime":20250224195903}
{"gps":$GNGGA,,,,,,0,00,25.5,,,,,,*64,"DateTime":20250224195904}
{"gps":$GNGGA,,,,,,0,00,25.5,,,,,,*64,"DateTime":20250224195904}
{"gps":$GNGGA,,,,,,0,00,25.5,,,,,,*64,"DateTime":20250224195906}
{"gps":$GNGGA,,,,,,0,00,25.5,,,,,,*64,"DateTime":20250224195907}
{"gps":$GNGGA,,,,,,0,00,25.5,,,,,,*64,"DateTime":20250224195908}
{"gps":$GNGGA,,,,,,0,00,25.5,,,,,,*64,"DateTime":20250224195908}
{"gps":$GNGGA,,,,,,0,00,25.5,,,,,,*64,"DateTime":20250224195910}
{"gps":$GNGGA,,,,,,0,00,25.5,,,,,,*64,"DateTime":20250224195911}
{"gps":$GNGGA,,,,,,0,00,25.5,,,,,,*64,"DateTime":20250224195912}
{"gps":$GNGGA,,,,,,0,00,25.5,,,,,,*64,"DateTime":20250224195913}
{"gps":$GNGGA,,,,,,0,00,25.5,,,,,,*64,"DateTime":20250224195914}
{"gps":$GNGGA,,,,,,0,00,25.5,,,,,,*64,"DateTime":20250224195915}
{"gps":$GNGGA,,,,,,0,00,25.5,,,,,,*64,"DateTime":20250224195915}
{"gps":$GNGGA,,,,,,0,00,25.5,,,,,,*64,"DateTime":20250224195917}
{"gps":$GNGGA,,,,,,0,00,25.5,,,,,,*64,"DateTime":20250224195918}
{"gps":$GNGGA,,,,,,0,00,25.5,,,,,,*64,"DateTime":20250224195918}
{"gps":$GNGGA,,,,,,0,00,25.5,,,,,,*64,"DateTime":20250224195920}
{"gps":$GNGGA,,,,,,0,00,25.5,,,,,,*64,"DateTime":20250224195921}
{"gps":$GNGGA,,,,,,0,00,25.5,,,,,,*64,"DateTime":20250224195922}
{"gps":$GNGGA,,,,,,0,00,25.5,,,,,,*64,"DateTime":20250224195922}
{"gps":$GNGGA,,,,,,0,00,25.5,,,,,,*64,"DateTime":20250224195923}
{"gps":$GNGGA,,,,,,0,00,25.5,,,,,,*64,"DateTime":20250224195925}
{"gps":$GNGGA,,,,,,0,00,25.5,,,,,,*64,"DateTime":20250224195926}
{"gps":$GNGGA,,,,,,0,00,25.5,,,,,,*64,"DateTime":20250224195927}
{"gps":$GNGGA,,,,,,0,00,25.5,,,,,,*64,"DateTime":20250224195927}
{"gps":$GNGGA,,,,,,0,00,25.5,,,,,,*64,"DateTime":20250224195928}
{"gps":$GNGGA,,,,,,0,00,25.5,,,,,,*64,"DateTime":20250224195930}
{"gps":$GNGGA,,,,,,0,00,25.5,,,,,,*64,"DateTime":20250224195931}
{"gps":$GNGGA,,,,,,0,00,25.5,,,,,,*64,"DateTime":20250224195932}
{"gps":$GNGGA,,,,,,0,00,25.5,,,,,,*64,"DateTime":20250224195932}
{"gps":$GNGGA,,,,,,0,00,25.5,,,,,,*64,"DateTime":20250224195933}
{"gps":$GNGGA,,,,,,0,00,25.5,,,,,,*64,"DateTime":20250224195935}
{"gps":$GNGGA,,,,,,0,00,25.5,,,,,,*64,"DateTime":20250224195936}
{"gps":$GNGGA,,,,,,0,00,25.5,,,,,,*64,"DateTime":20250224195937}
{"gps":$GNGGA,,,,,,0,00,25.5,,,,,,*64,"DateTime":20250224195937}
{"gps":$GNGGA,,,,,,0,00,25.5,,,,,,*64,"DateTime":20250224195939}
{"gps":$GNGGA,,,,,,0,00,25.5,,,,,,*64,"DateTime":20250224195940}
{"gps":$GNGGA,,,,,,0,00,25.5,,,,,,*64,"DateTime":20250224195940}
{"gps":$GNGGA,,,,,,0,00,25.5,,,,,,*64,"DateTime":20250224195942}
{"gps":$GNGGA,,,,,,0,00,25.5,,,,,,*64,"DateTime":20250224195943}
{"gps":$GNGGA,,,,,,0,00,25.5,,,,,,*64,"DateTime":20250224195944}
{"gps":$GNGGA,,,,,,0,00,25.5,,,,,,*64,"DateTime":20250224195944}
{"gps":$GNGGA,,,,,,0,00,25.5,,,,,,*64,"DateTime":20250224195945}
{"gps":$GNGGA,,,,,,0,00,25.5,,,,,,*64,"DateTime":20250224195947}
{"gps":$GNGGA,,,,,,0,00,25.5,,,,,,*64,"DateTime":20250224195947}
{"gps":$GNGGA,,,,,,0,00,25.5,,,,,,*64,"DateTime":20250224195949}
{"gps":$GNGGA,,,,,,0,00,25.5,,,,,,*64,"DateTime":20250224195950}
{"gps":$GNGGA,,,,,,0,00,25.5,,,,,,*64,"DateTime":20250224195950}
{"gps":$GNGGA,,,,,,0,00,25.5,,,,,,*64,"DateTime":20250224195952}
{"gps":$GNGGA,,,,,,0,00,25.5,,,,,,*64,"DateTime":20250224195952}
{"gps":$GNGGA,,,,,,0,00,25.5,,,,,,*64,"DateTime":20250224195954}
{"gps":$GNGGA,,,,,,0,00,25.5,,,,,,*64,"DateTime":20250224195955}
{"gps":$GNGGA,,,,,,0,00,25.5,,,,,,*64,"DateTime":20250224195955}
{"gps":$GNGGA,,,,,,0,00,25.5,,,,,,*64,"DateTime":20250224195957}
{"gps":$GNGGA,,,,,,0,00,25.5,,,,,,*64,"DateTime":20250224195957}
{"gps":$GNGGA,,,,,,0,00,25.5,,,,,,*64,"DateTime":20250224195959}
{"gps":$GNGGA,,,,,,0,00,25.5,,,,,,*64,"DateTime":20250224200000}
{"gps":$GNGGA,,,,,,0,00,25.5,,,,,,*64,"DateTime":20250224200001}
{"gps":$GNGGA,,,,,,0,00,25.5,,,,,,*64,"DateTime":20250224200002}
{"gps":$GNGGA,,,,,,0,00,25.5,,,,,,*64,"DateTime":20250224200002}
{"gps":$GNGGA,,,,,,0,00,25.5,,,,,,*64,"DateTime":20250224200004}
{"gps":$GNGGA,,,,,,0,00,25.5,,,,,,*64,"DateTime":20250224200004}
{"gps":$GNGGA,,,,,,0,00,25.5,,,,,,*64,"DateTime":20250224200006}
{"gps":$GNGGA,,,,,,0,00,25.5,,,,,,*64,"DateTime":20250224200007}
{"gps":$GNGGA,,,,,,0,00,25.5,,,,,,*64,"DateTime":20250224200008}
{"gps":$GNGGA,,,,,,0,00,25.5,,,,,,*64,"DateTime":20250224200008}
{"gps":$GNGGA,,,,,,0,00,25.5,,,,,,*64,"DateTime":20250224200010}
{"gps":$GNGGA,,,,,,0,00,25.5,,,,,,*64,"DateTime":20250224200011}
{"gps":$GNGGA,,,,,,0,00,25.5,,,,,,*64,"DateTime":20250224200011}
{"gps":$GNGGA,,,,,,0,00,25.5,,,,,,*64,"DateTime":20250224200013}
{"gps":$GNGGA,,,,,,0,00,25.5,,,,,,*64,"DateTime":20250224200013}
{"gps":$GNGGA,,,,,,0,00,25.5,,,,,,*64,"DateTime":20250224200015}
{"gps":$GNGGA,,,,,,0,00,25.5,,,,,,*64,"DateTime":20250224200016}
{"gps":$GNGGA,,,,,,0,00,25.5,,,,,,*64,"DateTime":20250224200016}
{"gps":$GNGGA,,,,,,0,00,25.5,,,,,,*64,"DateTime":20250224200017}
{"gps":$GNGGA,,,,,,0,00,25.5,,,,,,*64,"DateTime":20250224200018}
{"gps":$GNGGA,,,,,,0,00,25.5,,,,,,*64,"DateTime":20250224200020}
{"gps":$GNGGA,,,,,,0,00,25.5,,,,,,*64,"DateTime":20250224200020}
{"gps":$GNGGA,,,,,,0,00,25.5,,,,,,*64,"DateTime":20250224200022}
{"gps":$GNGGA,,,,,,0,00,25.5,,,,,,*64,"DateTime":20250224200023}
{"gps":$GNGGA,,,,,,0,00,25.5,,,,,,*64,"DateTime":20250224200023}
{"gps":$GNGGA,,,,,,0,00,25.5,,,,,,*64,"DateTime":20250224200025}
{"gps":$GNGGA,,,,,,0,00,25.5,,,,,,*64,"DateTime":20250224200025}
{"gps":$GNGGA,,,,,,0,00,25.5,,,,,,*64,"DateTime":20250224200027}
{"gps":$GNGGA,,,,,,0,00,25.5,,,,,,*64,"DateTime":20250224200028}
{"gps":$GNGGA,,,,,,0,00,25.5,,,,,,*64,"DateTime":20250224200028}
{"gps":$GNGGA,,,,,,0,00,25.5,,,,,,*64,"DateTime":20250224200030}
{"gps":$GNGGA,,,,,,0,00,25.5,,,,,,*64,"DateTime":20250224200030}
{"gps":$GNGGA,,,,,,0,00,25.5,,,,,,*64,"DateTime":20250224200032}
{"gps":$GNGGA,,,,,,0,00,25.5,,,,,,*64,"DateTime":20250224200033}
{"gps":$GNGGA,,,,,,0,00,25.5,,,,,,*64,"DateTime":20250224200033}
{"gps":$GNGGA,,,,,,0,00,25.5,,,,,,*64,"DateTime":20250224200035}
{"gps":$GNGGA,,,,,,0,00,25.5,,,,,,*64,"DateTime":20250224200036}
{"gps":$GNGGA,,,,,,0,00,25.5,,,,,,*64,"DateTime":20250224200037}
{"gps":$GNGGA,,,,,,0,00,25.5,,,,,,*64,"DateTime":20250224200037}
{"gps":$GNGGA,,,,,,0,00,25.5,,,,,,*64,"DateTime":20250224200038}
{"gps":$GNGGA,,,,,,0,00,25.5,,,,,,*64,"DateTime":20250224200040}
{"gps":$GNGGA,,,,,,0,00,25.5,,,,,,*64,"DateTime":20250224200040}
{"gps":$GNGGA,,,,,,0,00,25.5,,,,,,*64,"DateTime":20250224200042}
{"gps":$GNGGA,,,,,,0,00,25.5,,,,,,*64,"DateTime":20250224200042}
{"gps":$GNGGA,,,,,,0,00,25.5,,,,,,*64,"DateTime":20250224200044}
{"gps":$GNGGA,,,,,,0,00,25.5,,,,,,*64,"DateTime":20250224200045}
{"gps":$GNGGA,,,,,,0,00,25.5,,,,,,*64,"DateTime":20250224200045}
{"gps":$GNGGA,,,,,,0,00,25.5,,,,,,*64,"DateTime":20250224200047}
{"gps":$GNGGA,,,,,,0,00,25.5,,,,,,*64,"DateTime":20250224200047}
{"gps":$GNGGA,,,,,,0,00,25.5,,,,,,*64,"DateTime":20250224200049}
{"gps":$GNGGA,,,,,,0,00,25.5,,,,,,*64,"DateTime":20250224200050}
{"gps":$GNGGA,,,,,,0,00,25.5,,,,,,*64,"DateTime":20250224200050}
{"gps":$GNGGA,,,,,,0,00,25.5,,,,,,*64,"DateTime":20250224200052}
{"gps":$GNGGA,,,,,,0,00,25.5,,,,,,*64,"DateTime":20250224200053}
{"gps":$GNGGA,,,,,,0,00,25.5,,,,,,*64,"DateTime":20250224200054}
{"gps":$GNGGA,,,,,,0,00,25.5,,,,,,*64,"DateTime":20250224200054}
{"gps":$GNGGA,,,,,,0,00,25.5,,,,,,*64,"DateTime":20250224200055}
{"gps":$GNGGA,,,,,,0,00,25.5,,,,,,*64,"DateTime":20250224200057}
{"gps":$GNGGA,,,,,,0,00,25.5,,,,,,*64,"DateTime":20250224200058}
{"gps":$GNGGA,,,,,,0,00,25.5,,,,,,*64,"DateTime":20250224200059}
{"gps":$GNGGA,,,,,,0,00,25.5,,,,,,*64,"DateTime":20250224200059}
{"gps":$GNGGA,,,,,,0,00,25.5,,,,,,*64,"DateTime":20250224200100}
{"gps":$GNGGA,,,,,,0,00,25.5,,,,,,*64,"DateTime":20250224200102}
{"gps":$GNGGA,,,,,,0,00,25.5,,,,,,*64,"DateTime":20250224200102}
{"gps":$GNGGA,,,,,,0,00,25.5,,,,,,*64,"DateTime":20250224200104}
{"gps":$GNGGA,,,,,,0,00,25.5,,,,,,*64,"DateTime":20250224200105}
{"gps":$GNGGA,,,,,,0,00,25.5,,,,,,*64,"DateTime":20250224200107}
{"gps":$GNGGA,,,,,,0,00,25.5,,,,,,*64,"DateTime":20250224200109}
{"gps":$GNGGA,,,,,,0,00,25.5,,,,,,*64,"DateTime":20250224200111}
{"gps":$GNGGA,,,,,,0,00,25.5,,,,,,*64,"DateTime":20250224200113}
{"gps":$GNGGA,,,,,,0,00,25.5,,,,,,*64,"DateTime":20250224200114}
{"gps":$GNGGA,,,,,,0,00,25.5,,,,,,*64,"DateTime":20250224200116}
{"gps":$GNGGA,,,,,,0,00,25.5,,,,,,*64,"DateTime":20250224200118}
{"gps":$GNGGA,,,,,,0,00,25.5,,,,,,*64,"DateTime":20250224200119}
{"gps":$GNGGA,,,,,,0,00,25.5,,,,,,*64,"DateTime":20250224200121}
{"gps":$GNGGA,,,,,,0,00,25.5,,,,,,*64,"DateTime":20250224200123}
{"gps":$GNGGA,,,,,,0,00,25.5,,,,,,*64,"DateTime":20250224200124}
{"gps":$GNGGA,,,,,,0,00,25.5,,,,,,*64,"DateTime":20250224200126}
{"gps":$GNGGA,,,,,,0,00,25.5,,,,,,*64,"DateTime":20250224200128}
{"gps":$GNGGA,,,,,,0,00,25.5,,,,,,*64,"DateTime":20250224200131}
{"gps":$GNGGA,,,,,,0,00,25.5,,,,,,*64,"DateTime":20250224200133}
{"gps":$GNGGA,,,,,,0,00,25.5,,,,,,*64,"DateTime":20250224200134}
{"gps":$GNGGA,,,,,,0,00,25.5,,,,,,*64,"DateTime":20250224200136}
{"gps":$GNGGA,,,,,,0,00,25.5,,,,,,*64,"DateTime":20250224200139}
{"gps":$GNGGA,,,,,,0,00,25.5,,,,,,*64,"DateTime":20250224200141}
{"gps":$GNGGA,,,,,,0,00,25.5,,,,,,*64,"DateTime":20250224200142}
{"gps":$GNGGA,,,,,,0,00,25.5,,,,,,*64,"DateTime":20250224200144}
{"gps":$GNGGA,,,,,,0,00,25.5,,,,,,*64,"DateTime":20250224200147}
{"gps":$GNGGA,,,,,,0,00,25.5,,,,,,*64,"DateTime":20250224200149}
{"gps":$GNGGA,,,,,,0,00,25.5,,,,,,*64,"DateTime":20250224200150}
{"gps":$GNGGA,,,,,,0,00,25.5,,,,,,*64,"DateTime":20250224200152}
{"gps":$GNGGA,,,,,,0,00,25.5,,,,,,*64,"DateTime":20250224200154}
{"gps":$GNGGA,,,,,,0,00,25.5,,,,,,*64,"DateTime":20250224200155}
{"gps":$GNGGA,,,,,,0,00,25.5,,,,,,*64,"DateTime":20250224200157}
{"gps":$GNGGA,,,,,,0,00,25.5,,,,,,*64,"DateTime":20250224200159}
{"gps":$GNGGA,,,,,,0,00,25.5,,,,,,*64,"DateTime":20250224200201}
{"gps":$GNGGA,,,,,,0,00,25.5,,,,,,*64,"DateTime":20250224200203}
{"gps":$GNGGA,,,,,,0,00,25.5,,,,,,*64,"DateTime":20250224200205}
{"gps":$GNGGA,,,,,,0,00,25.5,,,,,,*64,"DateTime":20250224200207}
{"gps":$GNGGA,,,,,,0,00,25.5,,,,,,*64,"DateTime":20250224200209}
{"gps":$GNGGA,,,,,,0,00,25.5,,,,,,*64,"DateTime":20250224200212}
{"gps":$GNGGA,,,,,,0,00,25.5,,,,,,*64,"DateTime":20250224200214}
{"gps":$GNGGA,,,,,,0,00,25.5,,,,,,*64,"DateTime":20250224200216}
{"gps":$GNGGA,,,,,,0,00,25.5,,,,,,*64,"DateTime":20250224200218}
{"gps":$GNGGA,,,,,,0,00,25.5,,,,,,*64,"DateTime":20250224200220}
{"gps":$GNGGA,,,,,,0,00,25.5,,,,,,*64,"DateTime":20250224200221}
{"gps":$GNGGA,,,,,,0,00,25.5,,,,,,*64,"DateTime":20250224200223}
{"gps":$GNGGA,,,,,,0,00,25.5,,,,,,*64,"DateTime":20250224200225}
{"gps":$GNGGA,,,,,,0,00,25.5,,,,,,*64,"DateTime":20250224200227}
{"gps":$GNGGA,,,,,,0,00,25.5,,,,,,*64,"DateTime":20250224200228}
{"gps":$GNGGA,,,,,,0,00,25.5,,,,,,*64,"DateTime":20250224200229}
{"gps":$GNGGA,,,,,,0,00,25.5,,,,,,*64,"DateTime":20250224200229}
{"gps":$GNGGA,,,,,,0,00,25.5,,,,,,*64,"DateTime":20250224200231}
{"gps":$GNGGA,,,,,,0,00,25.5,,,,,,*64,"DateTime":20250224200232}
{"gps":$GNGGA,,,,,,0,00,25.5,,,,,,*64,"DateTime":20250224200233}
{"gps":$GNGGA,,,,,,0,00,25.5,,,,,,*64,"DateTime":20250224200234}
{"gps":$GNGGA,,,,,,0,00,25.5,,,,,,*64,"DateTime":20250224200234}
{"gps":$GNGGA,,,,,,0,00,25.5,,,,,,*64,"DateTime":20250224200236}
{"gps":$GNGGA,,,,,,0,00,25.5,,,,,,*64,"DateTime":20250224200237}
{"gps":$GNGGA,,,,,,0,00,25.5,,,,,,*64,"DateTime":20250224200237}
{"gps":$GNGGA,,,,,,0,00,25.5,,,,,,*64,"DateTime":20250224200239}
{"gps":$GNGGA,,,,,,0,00,25.5,,,,,,*64,"DateTime":20250224200239}
{"gps":$GNGGA,,,,,,0,00,25.5,,,,,,*64,"DateTime":20250224200241}
{"gps":$GNGGA,,,,,,0,00,25.5,,,,,,*64,"DateTime":20250224200242}
{"gps":$GNGGA,,,,,,0,00,25.5,,,,,,*64,"DateTime":20250224200242}
{"gps":$GNGGA,,,,,,0,00,25.5,,,,,,*64,"DateTime":20250224200244}
{"gps":$GNGGA,,,,,,0,00,25.5,,,,,,*64,"DateTime":20250224200244}
{"gps":$GNGGA,,,,,,0,00,25.5,,,,,,*64,"DateTime":20250224200246}
{"gps":$GNGGA,,,,,,0,00,25.5,,,,,,*64,"DateTime":20250224200247}
{"gps":$GNGGA,,,,,,0,00,25.5,,,,,,*64,"DateTime":20250224200248}
{"gps":$GNGGA,,,,,,0,00,25.5,,,,,,*64,"DateTime":20250224200249}
{"gps":$GNGGA,,,,,,0,00,25.5,,,,,,*64,"DateTime":20250224200249}
{"gps":$GNGGA,,,,,,0,00,25.5,,,,,,*64,"DateTime":20250224200251}
{"gps":$GNGGA,,,,,,0,00,25.5,,,,,,*64,"DateTime":20250224200252}
{"gps":$GNGGA,,,,,,0,00,25.5,,,,,,*64,"DateTime":20250224200253}
{"gps":$GNGGA,,,,,,0,00,25.5,,,,,,*64,"DateTime":20250224200254}
{"gps":$GNGGA,,,,,,0,00,25.5,,,,,,*64,"DateTime":20250224200254}
{"gps":$GNGGA,,,,,,0,00,25.5,,,,,,*64,"DateTime":20250224200256}
{"gps":$GNGGA,,,,,,0,00,25.5,,,,,,*64,"DateTime":20250224200257}
{"gps":$GNGGA,,,,,,0,00,25.5,,,,,,*64,"DateTime":20250224200258}
{"gps":$GNGGA,,,,,,0,00,25.5,,,,,,*64,"DateTime":20250224200258}
{"gps":$GNGGA,,,,,,0,00,25.5,,,,,,*64,"DateTime":20250224200259}
{"gps":$GNGGA,,,,,,0,00,25.5,,,,,,*64,"DateTime":20250224200301}
{"gps":$GNGGA,,,,,,0,00,25.5,,,,,,*64,"DateTime":20250224200301}
{"gps":$GNGGA,,,,,,0,00,25.5,,,,,,*64,"DateTime":20250224200303}
{"gps":$GNGGA,,,,,,0,00,25.5,,,,,,*64,"DateTime":20250224200304}
{"gps":$GNGGA,,,,,,0,00,25.5,,,,,,*64,"DateTime":20250224200304}
{"gps":$GNGGA,,,,,,0,00,25.5,,,,,,*64,"DateTime":20250224200306}
{"gps":$GNGGA,,,,,,0,00,25.5,,,,,,*64,"DateTime":20250224200306}
{"gps":$GNGGA,,,,,,0,00,25.5,,,,,,*64,"DateTime":20250224200308}
{"gps":$GNGGA,,,,,,0,00,25.5,,,,,,*64,"DateTime":20250224200309}
{"gps":$GNGGA,,,,,,0,00,25.5,,,,,,*64,"DateTime":20250224200310}
{"gps":$GNGGA,,,,,,0,00,25.5,,,,,,*64,"DateTime":20250224200311}
{"gps":$GNGGA,,,,,,0,00,25.5,,,,,,*64,"DateTime":20250224200311}
{"gps":$GNGGA,,,,,,0,00,25.5,,,,,,*64,"DateTime":20250224200313}
{"gps":$GNGGA,,,,,,0,00,25.5,,,,,,*64,"DateTime":20250224200314}
{"gps":$GNGGA,,,,,,0,00,25.5,,,,,,*64,"DateTime":20250224200315}
{"gps":$GNGGA,,,,,,0,00,25.5,,,,,,*64,"DateTime":20250224200316}
{"gps":$GNGGA,,,,,,0,00,25.5,,,,,,*64,"DateTime":20250224200316}
{"gps":$GNGGA,,,,,,0,00,25.5,,,,,,*64,"DateTime":20250224200318}
{"gps":$GNGGA,,,,,,0,00,25.5,,,,,,*64,"DateTime":20250224200319}
{"gps":$GNGGA,,,,,,0,00,25.5,,,,,,*64,"DateTime":20250224200320}
{"gps":$GNGGA,,,,,,0,00,25.5,,,,,,*64,"DateTime":20250224200320}
{"gps":$GNGGA,,,,,,0,00,25.5,,,,,,*64,"DateTime":20250224200321}
{"gps":$GNGGA,,,,,,0,00,25.5,,,,,,*64,"DateTime":20250224200323}
{"gps":$GNGGA,,,,,,0,00,25.5,,,,,,*64,"DateTime":20250224200323}
{"gps":$GNGGA,,,,,,0,00,25.5,,,,,,*64,"DateTime":20250224200325}
{"gps":$GNGGA,,,,,,0,00,25.5,,,,,,*64,"DateTime":20250224200326}
{"gps":$GNGGA,,,,,,0,00,25.5,,,,,,*64,"DateTime":20250224200326}
{"gps":$GNGGA,,,,,,0,00,25.5,,,,,,*64,"DateTime":20250224200328}
{"gps":$GNGGA,,,,,,0,00,25.5,,,,,,*64,"DateTime":20250224200329}
{"gps":$GNGGA,,,,,,0,00,25.5,,,,,,*64,"DateTime":20250224200329}
{"gps":$GNGGA,,,,,,0,00,25.5,,,,,,*64,"DateTime":20250224200330}
{"gps":$GNGGA,,,,,,0,00,25.5,,,,,,*64,"DateTime":20250224200331}
{"gps":$GNGGA,,,,,,0,00,25.5,,,,,,*64,"DateTime":20250224200332}
{"gps":$GNGGA,,,,,,0,00,25.5,,,,,,*64,"DateTime":20250224200333}
{"gps":$GNGGA,,,,,,0,00,25.5,,,,,,*64,"DateTime":20250224200334}
{"gps":$GNGGA,,,,,,0,00,25.5,,,,,,*64,"DateTime":20250224200336}
{"gps":$GNGGA,,,,,,0,00,25.5,,,,,,*64,"DateTime":20250224200336}
{"gps":$GNGGA,,,,,,0,00,25.5,,,,,,*64,"DateTime":20250224200338}
{"gps":$GNGGA,,,,,,0,00,25.5,,,,,,*64,"DateTime":20250224200338}
{"gps":$GNGGA,,,,,,0,00,25.5,,,,,,*64,"DateTime":20250224200339}
{"gps":$GNGGA,,,,,,0,00,25.5,,,,,,*64,"DateTime":20250224200341}
{"gps":$GNGGA,,,,,,0,00,25.5,,,,,,*64,"DateTime":20250224200341}
{"gps":$GNGGA,,,,,,0,00,25.5,,,,,,*64,"DateTime":20250224200343}
{"gps":$GNGGA,,,,,,0,00,25.5,,,,,,*64,"DateTime":20250224200343}
{"gps":$GNGGA,,,,,,0,00,25.5,,,,,,*64,"DateTime":20250224200344}
{"gps":$GNGGA,,,,,,0,00,25.5,,,,,,*64,"DateTime":20250224200346}
{"gps":$GNGGA,,,,,,0,00,25.5,,,,,,*64,"DateTime":20250224200346}
{"gps":$GNGGA,,,,,,0,00,25.5,,,,,,*64,"DateTime":20250224200348}
{"gps":$GNGGA,,,,,,0,00,25.5,,,,,,*64,"DateTime":20250224200348}
{"gps":$GNGGA,,,,,,0,00,25.5,,,,,,*64,"DateTime":20250224200349}
{"gps":$GNGGA,,,,,,0,00,25.5,,,,,,*64,"DateTime":20250224200350}
{"gps":$GNGGA,,,,,,0,00,25.5,,,,,,*64,"DateTime":20250224200351}
{"gps":$GNGGA,,,,,,0,00,25.5,,,,,,*64,"DateTime":20250224200353}
{"gps":$GNGGA,,,,,,0,00,25.5,,,,,,*64,"DateTime":20250224200353}
{"gps":$GNGGA,,,,,,0,00,25.5,,,,,,*64,"DateTime":20250224200354}
{"gps":$GNGGA,,,,,,0,00,25.5,,,,,,*64,"DateTime":20250224200355}
{"gps":$GNGGA,,,,,,0,00,25.5,,,,,,*64,"DateTime":20250224200356}
{"gps":$GNGGA,,,,,,0,00,25.5,,,,,,*64,"DateTime":20250224200358}
{"gps":$GNGGA,,,,,,0,00,25.5,,,,,,*64,"DateTime":20250224200358}
{"gps":$GNGGA,,,,,,0,00,25.5,,,,,,*64,"DateTime":20250224200400}
{"gps":$GNGGA,,,,,,0,00,25.5,,,,,,*64,"DateTime":20250224200400}
{"gps":$GNGGA,,,,,,0,00,25.5,,,,,,*64,"DateTime":20250224200401}
{"gps":$GNGGA,,,,,,0,00,25.5,,,,,,*64,"DateTime":20250224200403}
{"gps":$GNGGA,,,,,,0,00,25.5,,,,,,*64,"DateTime":20250224200403}
{"gps":$GNGGA,,,,,,0,00,25.5,,,,,,*64,"DateTime":20250224200405}
{"gps":$GNGGA,,,,,,0,00,25.5,,,,,,*64,"DateTime":20250224200405}
{"gps":$GNGGA,,,,,,0,00,25.5,,,,,,*64,"DateTime":20250224200406}
{"gps":$GNGGA,,,,,,0,00,25.5,,,,,,*64,"DateTime":20250224200408}
{"gps":$GNGGA,,,,,,0,00,25.5,,,,,,*64,"DateTime":20250224200408}
{"gps":$GNGGA,,,,,,0,00,25.5,,,,,,*64,"DateTime":20250224200410}
{"gps":$GNGGA,,,,,,0,00,25.5,,,,,,*64,"DateTime":20250224200410}
{"gps":$GNGGA,,,,,,0,00,25.5,,,,,,*64,"DateTime":20250224200411}
{"gps":$GNGGA,,,,,,0,00,25.5,,,,,,*64,"DateTime":20250224200412}
{"gps":$GNGGA,,,,,,0,00,25.5,,,,,,*64,"DateTime":20250224200413}
{"gps":$GNGGA,,,,,,0,00,25.5,,,,,,*64,"DateTime":20250224200415}
{"gps":$GNGGA,,,,,,0,00,25.5,,,,,,*64,"DateTime":20250224200415}
{"gps":$GNGGA,,,,,,0,00,25.5,,,,,,*64,"DateTime":20250224200416}
{"gps":$GNGGA,,,,,,0,00,25.5,,,,,,*64,"DateTime":20250224200417}
{"gps":$GNGGA,,,,,,0,00,25.5,,,,,,*64,"DateTime":20250224200418}
{"gps":$GNGGA,,,,,,0,00,25.5,,,,,,*64,"DateTime":20250224200420}
{"gps":$GNGGA,,,,,,0,00,25.5,,,,,,*64,"DateTime":20250224200420}
{"gps":$GNGGA,,,,,,0,00,25.5,,,,,,*64,"DateTime":20250224200422}
{"gps":$GNGGA,,,,,,0,00,25.5,,,,,,*64,"DateTime":20250224200422}
{"gps":$GNGGA,,,,,,0,00,25.5,,,,,,*64,"DateTime":20250224200423}
{"gps":$GNGGA,,,,,,0,00,25.5,,,,,,*64,"DateTime":20250224200425}
{"gps":$GNGGA,,,,,,0,00,25.5,,,,,,*64,"DateTime":20250224200425}
{"gps":$GNGGA,,,,,,0,00,25.5,,,,,,*64,"DateTime":20250224200427}
{"gps":$GNGGA,,,,,,0,00,25.5,,,,,,*64,"DateTime":20250224200427}
{"gps":$GNGGA,,,,,,0,00,25.5,,,,,,*64,"DateTime":20250224200429}
{"gps":$GNGGA,,,,,,0,00,25.5,,,,,,*64,"DateTime":20250224200431}
{"gps":$GNGGA,,,,,,0,00,25.5,,,,,,*64,"DateTime":20250224200518}
{"gps":$GNGGA,,,,,,0,00,25.5,,,,,,*64,"DateTime":20250224200519}
{"gps":$GNGGA,,,,,,0,00,25.5,,,,,,*64,"DateTime":20250224200520}
{"gps":$GNGGA,,,,,,0,00,25.5,,,,,,*64,"DateTime":20250224201112}
{"gps":$GNGGA,,,,,,0,00,25.5,,,,,,*64,"DateTime":20250224201114}
{"gps":$GNGGA,,,,,,0,00,25.5,,,,,,*64,"DateTime":20250224201116}
{"gps":$GNGGA,,,,,,0,00,25.5,,,,,,*64,"DateTime":20250224201117}
{"gps":$GNGGA,,,,,,0,00,25.5,,,,,,*64,"DateTime":20250224201119}
{"gps":$GNGGA,,,,,,0,00,25.5,,,,,,*64,"DateTime":20250224201121}
{"gps":$GNGGA,144120.155,,,,,0,00,25.5,,,,,,*79,"DateTime":20250224201123}
{"gps":$GNGGA,144122.000,,,,,0,00,25.5,,,,,,*7A,"DateTime":20250224201124}
{"gps":$GNGGA,144124.000,,,,,0,00,25.5,,,,,,*7C,"DateTime":20250224201126}
{"gps":$GNGGA,144125.000,,,,,0,00,25.5,,,,,,*7D,"DateTime":20250224201128}
{"gps":$GNGGA,144126.000,,,,,0,00,25.5,,,,,,*7E,"DateTime":20250224201129}
{"gps":$GNGGA,144127.000,,,,,0,00,25.5,,,,,,*7F,"DateTime":20250224201130}
{"gps":$GNGGA,144130.000,,,,,0,00,25.5,,,,,,*79,"DateTime":20250224201132}
{"gps":$GNGGA,144131.000,,,,,0,00,25.5,,,,,,*78,"DateTime":20250224201133}
{"gps":$GNGGA,144132.000,,,,,0,00,25.5,,,,,,*7B,"DateTime":20250224201135}
{"gps":$GNGGA,144133.000,,,,,0,00,25.5,,,,,,*7A,"DateTime":20250224201136}
{"gps":$GNGGA,144134.000,,,,,0,00,25.5,,,,,,*7D,"DateTime":20250224201138}
{"gps":$GNGGA,144139.000,,,,,0,00,25.5,,,,,,*70,"DateTime":20250224201141}
{"gps":$GNGGA,144140.000,,,,,0,00,25.5,,,,,,*7E,"DateTime":20250224201142}
{"gps":$GNGGA,144143.000,1258.50599,N,07909.70773,E,1,07,10.0,5.9,M,0.0,M,,*42,"DateTime":20250224201144}
{"gps":$GNGGA,144144.000,1258.50583,N,07909.70856,E,1,08,5.7,9.0,M,0.0,M,,*7F,"DateTime":20250224201146}
{"gps":$GNGGA,144145.000,1258.50592,N,07909.70918,E,1,09,1.4,12.5,M,0.0,M,,*4C,"DateTime":20250224201147}
{"gps":$GNGGA,144148.000,1258.50657,N,07909.71047,E,1,09,1.4,19.8,M,0.0,M,,*4F,"DateTime":20250224201149}
{"gps":$GNGGA,144149.000,1258.50681,N,07909.71093,E,1,09,1.4,21.8,M,0.0,M,,*47,"DateTime":20250224201151}
{"gps":$GNGGA,144150.000,1258.50681,N,07909.71093,E,6,09,1.4,21.8,M,0.0,M,,*48,"DateTime":20250224201152}
{"gps":$GNGGA,,,,,,0,00,25.5,,,,,,*64,"DateTime":20250224201300}
{"gps":$GNGGA,,,,,,0,00,25.5,,,,,,*64,"DateTime":20250224201631}
{"gps":$GNGGA,,,,,,0,00,25.5,,,,,,*64,"DateTime":20250224202308}
{"gps":$GNGGA,,,,,,0,00,25.5,,,,,,*64,"DateTime":20250224202309}
{"gps":$GNGGA,,,,,,0,00,25.5,,,,,,*64,"DateTime":20250224202310}
{"gps":$GNGGA,145312.104,,,,,0,00,25.5,,,,,,*7F,"DateTime":20250224202311}
{"gps":$GNGGA,145313.000,,,,,0,00,25.5,,,,,,*7B,"DateTime":20250224202312}
{"gps":$GNGGA,145314.000,,,,,0,00,25.5,,,,,,*7C,"DateTime":20250224202313}
{"gps":$GNGGA,145315.000,,,,,0,00,25.5,,,,,,*7D,"DateTime":20250224202314}
{"gps":$GNGGA,145316.000,,,,,0,00,25.5,,,,,,*7E,"DateTime":20250224202315}
{"gps":$GNGGA,145317.000,,,,,0,00,25.5,,,,,,*7F,"DateTime":20250224202316}
{"gps":$GNGGA,145318.000,,,,,0,00,25.5,,,,,,*70,"DateTime":20250224202317}
{"gps":$GNGGA,145319.000,,,,,0,00,25.5,,,,,,*71,"DateTime":20250224202318}
{"gps":$GNGGA,145319.993,1258.46878,N,07909.85697,E,6,06,3.3,13.9,M,0.0,M,,*49,"DateTime":20250224202319}
{"gps":$GNGGA,145321.000,1258.46883,N,07909.85761,E,1,06,3.3,15.1,M,0.0,M,,*44,"DateTime":20250224202320}
{"gps":$GNGGA,145322.000,1258.46926,N,07909.85833,E,1,06,3.3,17.2,M,0.0,M,,*40,"DateTime":20250224202321}
{"gps":$GNGGA,145323.000,1258.47143,N,07909.85883,E,1,07,1.4,20.0,M,0.0,M,,*42,"DateTime":20250224202322}
{"gps":$GNGGA,145324.000,1258.47339,N,07909.85939,E,1,07,1.4,23.4,M,0.0,M,,*4D,"DateTime":20250224202323}
{"gps":$GNGGA,145325.000,1258.47522,N,07909.86010,E,1,07,1.4,27.1,M,0.0,M,,*40,"DateTime":20250224202324}
{"gps":$GNGGA,145326.000,1258.48142,N,07909.86264,E,1,07,1.4,45.6,M,0.0,M,,*4C,"DateTime":20250224202325}
{"gps":$GNGGA,145327.000,1258.48508,N,07909.86415,E,1,08,1.4,49.7,M,0.0,M,,*45,"DateTime":20250224202326}
{"gps":$GNGGA,145328.000,1258.48693,N,07909.86493,E,1,08,1.4,52.2,M,0.0,M,,*4A,"DateTime":20250224202327}
{"gps":$GNGGA,145329.000,1258.48838,N,07909.86525,E,1,08,1.4,54.6,M,0.0,M,,*4A,"DateTime":20250224202328}
{"gps":$GNGGA,145330.000,1258.48946,N,07909.86553,E,1,08,1.4,56.8,M,0.0,M,,*47,"DateTime":20250224202329}
{"gps":$GNGGA,145331.000,1258.49039,N,07909.86597,E,1,09,1.4,59.5,M,0.0,M,,*4D,"DateTime":20250224202330}
{"gps":$GNGGA,145332.000,1258.49147,N,07909.86627,E,1,09,1.4,61.6,M,0.0,M,,*46,"DateTime":20250224202331}
{"gps":$GNGGA,145333.000,1258.49233,N,07909.86652,E,1,09,1.4,63.5,M,0.0,M,,*44,"DateTime":20250224202332}
{"gps":$GNGGA,145334.000,1258.49286,N,07909.86677,E,1,09,1.4,65.0,M,0.0,M,,*49,"DateTime":20250224202333}
{"gps":$GNGGA,145335.000,1258.49316,N,07909.86692,E,1,09,1.4,66.6,M,0.0,M,,*4E,"DateTime":20250224202334}
{"gps":$GNGGA,145336.000,1258.49345,N,07909.86717,E,1,09,1.4,68.7,M,0.0,M,,*48,"DateTime":20250224202335}
{"gps":$GNGGA,145341.000,1258.49469,N,07909.86827,E,1,10,1.3,78.9,M,0.0,M,,*4D,"DateTime":20250224202342}
{"gps":$GNGGA,145343.000,1258.49528,N,07909.86867,E,1,10,1.3,83.2,M,0.0,M,,*40,"DateTime":20250224202343}
{"gps":$GNGGA,145344.000,1258.49528,N,07909.86886,E,1,10,1.3,84.9,M,0.0,M,,*44,"DateTime":20250224202343}
{"gps":$GNGGA,145345.000,1258.49521,N,07909.86907,E,1,10,1.3,86.7,M,0.0,M,,*48,"DateTime":20250224202344}
{"gps":$GNGGA,145346.000,1258.49523,N,07909.86937,E,1,10,1.3,89.3,M,0.0,M,,*41,"DateTime":20250224202346}
{"gps":$GNGGA,145347.000,1258.49510,N,07909.86961,E,1,10,1.3,91.5,M,0.0,M,,*4C,"DateTime":20250224202347}
{"gps":$GNGGA,145348.000,1258.49488,N,07909.86967,E,1,10,1.3,93.2,M,0.0,M,,*40,"DateTime":20250224202347}
{"gps":$GNGGA,145349.000,1258.49462,N,07909.86978,E,1,10,1.3,95.0,M,0.0,M,,*4F,"DateTime":20250224202348}
{"gps":$GNGGA,145350.000,1258.49455,N,07909.86995,E,1,10,1.3,97.7,M,0.0,M,,*45,"DateTime":20250224202349}
{"gps":$GNGGA,145351.000,1258.49430,N,07909.87004,E,1,10,1.3,99.6,M,0.0,M,,*48,"DateTime":20250224202350}
{"gps":$GNGGA,145352.000,1258.49399,N,07909.87012,E,1,10,1.3,101.4,M,0.0,M,,*7A,"DateTime":20250224202351}
{"gps":$GNGGA,145353.000,1258.49388,N,07909.87026,E,1,10,1.3,104.2,M,0.0,M,,*7F,"DateTime":20250224202352}
{"gps":$GNGGA,145354.000,1258.49352,N,07909.87037,E,1,10,1.3,106.1,M,0.0,M,,*7E,"DateTime":20250224202353}
{"gps":$GNGGA,145355.000,1258.49318,N,07909.87046,E,1,10,1.3,108.1,M,0.0,M,,*79,"DateTime":20250224202354}
{"gps":$GNGGA,145356.000,1258.49296,N,07909.87046,E,1,10,1.3,110.8,M,0.0,M,,*7D,"DateTime":20250224202355}
{"gps":$GNGGA,145357.000,1258.49261,N,07909.87043,E,1,10,1.3,112.7,M,0.0,M,,*7C,"DateTime":20250224202356}
{"gps":$GNGGA,145358.000,1258.49214,N,07909.87036,E,1,10,1.3,114.0,M,0.0,M,,*72,"DateTime":20250224202357}
{"gps":$GNGGA,145359.000,1258.49168,N,07909.87025,E,1,10,1.3,114.9,M,0.0,M,,*70,"DateTime":20250224202358}
{"gps":$GNGGA,145400.000,1258.49128,N,07909.87027,E,1,10,1.3,116.2,M,0.0,M,,*74,"DateTime":20250224202400}
{"gps":$GNGGA,145401.000,1258.49089,N,07909.87025,E,1,11,1.2,117.3,M,0.0,M,,*7D,"DateTime":20250224202401}
{"gps":$GNGGA,145402.000,1258.49047,N,07909.87034,E,1,11,1.2,118.6,M,0.0,M,,*76,"DateTime":20250224202402}
{"gps":$GNGGA,145403.000,1258.48995,N,07909.87045,E,1,11,1.2,119.6,M,0.0,M,,*77,"DateTime":20250224202403}
{"gps":$GNGGA,145404.000,1258.48936,N,07909.87047,E,1,11,1.2,120.5,M,0.0,M,,*72,"DateTime":20250224202404}
{"gps":$GNGGA,145405.000,1258.48875,N,07909.87056,E,1,11,1.2,121.4,M,0.0,M,,*75,"DateTime":20250224202405}
{"gps":$GNGGA,145406.000,1258.48812,N,07909.87066,E,1,11,1.2,121.9,M,0.0,M,,*79,"DateTime":20250224202405}
{"gps":$GNGGA,145407.000,1258.48751,N,07909.87080,E,1,11,1.2,122.5,M,0.0,M,,*77,"DateTime":20250224202406}
{"gps":$GNGGA,145408.000,1258.48692,N,07909.87098,E,1,10,3.3,123.1,M,0.0,M,,*78,"DateTime":20250224202407}
{"gps":$GNGGA,145409.000,1258.48631,N,07909.87108,E,1,10,3.3,123.6,M,0.0,M,,*7F,"DateTime":20250224202408}
{"gps":$GNGGA,145410.000,1258.48566,N,07909.87114,E,1,10,3.3,123.8,M,0.0,M,,*75,"DateTime":20250224202410}
{"gps":$GNGGA,145411.000,1258.48501,N,07909.87118,E,1,12,2.6,124.0,M,0.0,M,,*70,"DateTime":20250224202411}
{"gps":$GNGGA,145412.000,1258.48438,N,07909.87130,E,1,13,1.1,124.2,M,0.0,M,,*75,"DateTime":20250224202411}
{"gps":$GNGGA,145413.000,1258.48372,N,07909.87139,E,1,13,1.1,124.3,M,0.0,M,,*75,"DateTime":20250224202412}
{"gps":$GNGGA,145414.000,1258.48306,N,07909.87143,E,1,12,2.6,124.4,M,0.0,M,,*7E,"DateTime":20250224202414}
{"gps":$GNGGA,145415.000,1258.48247,N,07909.87174,E,1,13,2.1,125.1,M,0.0,M,,*7D,"DateTime":20250224202415}
{"gps":$GNGGA,145416.000,1258.48183,N,07909.87196,E,1,13,2.1,125.6,M,0.0,M,,*7E,"DateTime":20250224202415}
{"gps":$GNGGA,145417.000,1258.48122,N,07909.87220,E,1,14,1.1,126.1,M,0.0,M,,*7A,"DateTime":20250224202416}
{"gps":$GNGGA,145418.000,1258.48064,N,07909.87240,E,1,14,1.1,126.7,M,0.0,M,,*76,"DateTime":20250224202417}
{"gps":$GNGGA,145419.000,1258.48002,N,07909.87254,E,1,14,1.1,127.2,M,0.0,M,,*76,"DateTime":20250224202418}
{"gps":$GNGGA,145420.000,1258.47940,N,07909.87264,E,1,14,1.1,127.5,M,0.0,M,,*78,"DateTime":20250224202419}
{"gps":$GNGGA,145421.000,1258.47881,N,07909.87272,E,1,14,1.1,127.8,M,0.0,M,,*7F,"DateTime":20250224202420}
{"gps":$GNGGA,145422.000,1258.47820,N,07909.87279,E,1,14,1.1,128.2,M,0.0,M,,*79,"DateTime":20250224202421}
{"gps":$GNGGA,145423.000,1258.47755,N,07909.87284,E,1,14,1.1,128.4,M,0.0,M,,*71,"DateTime":20250224202422}
{"gps":$GNGGA,145424.000,1258.47691,N,07909.87285,E,1,14,1.1,128.7,M,0.0,M,,*7D,"DateTime":20250224202423}
{"gps":$GNGGA,145425.000,1258.47630,N,07909.87274,E,1,14,1.1,128.8,M,0.0,M,,*76,"DateTime":20250224202424}
{"gps":$GNGGA,145426.000,1258.47562,N,07909.87261,E,1,14,1.1,128.8,M,0.0,M,,*75,"DateTime":20250224202425}
{"gps":$GNGGA,145427.000,1258.47489,N,07909.87251,E,1,14,1.1,128.5,M,0.0,M,,*7E,"DateTime":20250224202426}
{"gps":$GNGGA,145428.000,1258.47424,N,07909.87240,E,1,14,1.1,128.5,M,0.0,M,,*76,"DateTime":20250224202428}
{"gps":$GNGGA,145429.000,1258.47360,N,07909.87228,E,1,14,1.1,128.5,M,0.0,M,,*7E,"DateTime":20250224202429}
{"gps":$GNGGA,145430.000,1258.47300,N,07909.87218,E,1,14,1.1,128.6,M,0.0,M,,*70,"DateTime":20250224202430}
{"gps":$GNGGA,145431.000,1258.47248,N,07909.87236,E,1,16,0.9,129.2,M,0.0,M,,*7E,"DateTime":20250224202431}
{"gps":$GNGGA,145432.000,1258.47193,N,07909.87245,E,1,16,0.9,129.5,M,0.0,M,,*7B,"DateTime":20250224202431}
{"gps":$GNGGA,145433.000,1258.47135,N,07909.87262,E,1,16,0.9,129.7,M,0.0,M,,*71,"DateTime":20250224202432}
{"gps":$GNGGA,145434.000,1258.47076,N,07909.87282,E,1,16,0.9,130.0,M,0.0,M,,*71,"DateTime":20250224202433}
{"gps":$GNGGA,145435.000,1258.47009,N,07909.87291,E,1,16,0.9,130.2,M,0.0,M,,*78,"DateTime":20250224202434}
{"gps":$GNGGA,145436.000,1258.46945,N,07909.87297,E,1,16,0.9,130.3,M,0.0,M,,*7C,"DateTime":20250224202435}
{"gps":$GNGGA,145437.000,1258.46883,N,07909.87292,E,1,16,0.9,130.1,M,0.0,M,,*71,"DateTime":20250224202436}
{"gps":$GNGGA,145438.000,1258.46819,N,07909.87298,E,1,16,0.9,130.2,M,0.0,M,,*74,"DateTime":20250224202437}
{"gps":$GNGGA,145439.000,1258.46754,N,07909.87298,E,1,16,0.9,130.3,M,0.0,M,,*72,"DateTime":20250224202438}
{"gps":$GNGGA,145440.000,1258.46694,N,07909.87315,E,1,16,0.9,130.6,M,0.0,M,,*70,"DateTime":20250224202439}
{"gps":$GNGGA,145441.000,1258.46628,N,07909.87333,E,1,16,0.9,130.9,M,0.0,M,,*7D,"DateTime":20250224202440}
{"gps":$GNGGA,145442.000,1258.46562,N,07909.87348,E,1,16,0.9,131.1,M,0.0,M,,*76,"DateTime":20250224202443}
{"gps":$GNGGA,145444.000,1258.46430,N,07909.87350,E,1,16,0.9,131.4,M,0.0,M,,*7A,"DateTime":20250224202445}
{"gps":$GNGGA,145446.000,1258.46301,N,07909.87369,E,1,16,0.9,131.9,M,0.0,M,,*7A,"DateTime":20250224202447}
{"gps":$GNGGA,145448.000,1258.46170,N,07909.87379,E,1,16,0.9,132.0,M,0.0,M,,*7B,"DateTime":20250224202449}
{"gps":$GNGGA,145450.000,1258.46036,N,07909.87391,E,1,16,0.9,132.2,M,0.0,M,,*75,"DateTime":20250224202451}
{"gps":$GNGGA,145452.000,1258.45903,N,07909.87399,E,1,16,0.9,132.5,M,0.0,M,,*74,"DateTime":20250224202453}
{"gps":$GNGGA,145454.000,1258.45774,N,07909.87378,E,1,16,0.9,132.4,M,0.0,M,,*72,"DateTime":20250224202455}
{"gps":$GNGGA,145456.000,1258.45647,N,07909.87366,E,1,16,0.9,132.4,M,0.0,M,,*7E,"DateTime":20250224202456}
{"gps":$GNGGA,145458.000,1258.45511,N,07909.87385,E,1,16,0.9,132.6,M,0.0,M,,*7F,"DateTime":20250224202459}
{"gps":$GNGGA,145500.000,1258.45368,N,07909.87402,E,1,16,0.9,132.7,M,0.0,M,,*72,"DateTime":20250224202501}
{"gps":$GNGGA,145502.000,1258.45225,N,07909.87430,E,1,16,0.9,132.9,M,0.0,M,,*77,"DateTime":20250224202503}
{"gps":$GNGGA,145504.000,1258.45086,N,07909.87459,E,1,16,0.9,133.3,M,0.0,M,,*7E,"DateTime":20250224202505}
{"gps":$GNGGA,145506.000,1258.44959,N,07909.87462,E,1,16,0.9,133.8,M,0.0,M,,*75,"DateTime":20250224202507}
{"gps":$GNGGA,145508.000,1258.44835,N,07909.87483,E,1,16,0.9,134.3,M,0.0,M,,*73,"DateTime":20250224202509}
{"gps":$GNGGA,145510.000,1258.44715,N,07909.87495,E,1,16,0.9,134.9,M,0.0,M,,*7A,"DateTime":20250224202511}
{"gps":$GNGGA,145512.000,1258.44584,N,07909.87488,E,1,16,0.9,135.7,M,0.0,M,,*71,"DateTime":20250224202513}
{"gps":$GNGGA,145514.000,1258.44456,N,07909.87469,E,1,16,0.9,136.0,M,0.0,M,,*72,"DateTime":20250224202515}
{"gps":$GNGGA,145516.000,1258.44328,N,07909.87453,E,1,16,0.9,136.3,M,0.0,M,,*74,"DateTime":20250224202517}
{"gps":$GNGGA,145518.000,1258.44216,N,07909.87451,E,1,16,0.9,136.8,M,0.0,M,,*7F,"DateTime":20250224202519}
{"gps":$GNGGA,145520.000,1258.44105,N,07909.87445,E,1,15,1.3,137.3,M,0.0,M,,*72,"DateTime":20250224202521}
{"gps":$GNGGA,145522.000,1258.43998,N,07909.87446,E,1,16,0.9,137.5,M,0.0,M,,*76,"DateTime":20250224202523}
{"gps":$GNGGA,145524.000,1258.43913,N,07909.87428,E,1,16,0.9,137.8,M,0.0,M,,*76,"DateTime":20250224202525}
{"gps":$GNGGA,145526.000,1258.43808,N,07909.87401,E,1,16,0.9,137.5,M,0.0,M,,*79,"DateTime":20250224202527}
{"gps":$GNGGA,145528.000,1258.43688,N,07909.87405,E,1,16,0.9,137.7,M,0.0,M,,*77,"DateTime":20250224202529}
{"gps":$GNGGA,145530.000,1258.43555,N,07909.87402,E,1,16,0.9,137.7,M,0.0,M,,*7A,"DateTime":20250224202531}
{"gps":$GNGGA,145532.000,1258.43424,N,07909.87398,E,1,16,0.9,138.0,M,0.0,M,,*73,"DateTime":20250224202533}
{"gps":$GNGGA,145534.000,1258.43298,N,07909.87366,E,1,16,0.9,138.2,M,0.0,M,,*77,"DateTime":20250224202535}
{"gps":$GNGGA,145536.000,1258.43163,N,07909.87365,E,1,16,0.9,138.6,M,0.0,M,,*75,"DateTime":20250224202537}
{"gps":$GNGGA,145538.000,1258.43027,N,07909.87382,E,1,16,0.9,139.2,M,0.0,M,,*76,"DateTime":20250224202539}
{"gps":$GNGGA,145540.000,1258.42891,N,07909.87386,E,1,16,0.9,139.5,M,0.0,M,,*7E,"DateTime":20250224202541}
{"gps":$GNGGA,145542.000,1258.42752,N,07909.87394,E,1,16,0.9,139.9,M,0.0,M,,*73,"DateTime":20250224202543}
{"gps":$GNGGA,145544.000,1258.42616,N,07909.87424,E,1,16,0.9,140.7,M,0.0,M,,*78,"DateTime":20250224202545}
{"gps":$GNGGA,145546.000,1258.42480,N,07909.87461,E,1,16,0.9,141.3,M,0.0,M,,*73,"DateTime":20250224202547}
{"gps":$GNGGA,145548.000,1258.42352,N,07909.87507,E,1,15,1.3,141.6,M,0.0,M,,*79,"DateTime":20250224202549}
{"gps":$GNGGA,145550.000,1258.42212,N,07909.87545,E,1,15,0.9,141.9,M,0.0,M,,*77,"DateTime":20250224202551}
{"gps":$GNGGA,145552.000,1258.42083,N,07909.87566,E,1,15,0.9,142.2,M,0.0,M,,*76,"DateTime":20250224202553}
{"gps":$GNGGA,145554.000,1258.41947,N,07909.87589,E,1,15,0.9,142.5,M,0.0,M,,*74,"DateTime":20250224202555}
{"gps":$GNGGA,145556.000,1258.41807,N,07909.87603,E,1,16,0.9,143.0,M,0.0,M,,*75,"DateTime":20250224202557}
{"gps":$GNGGA,145558.000,1258.41674,N,07909.87604,E,1,16,0.9,142.9,M,0.0,M,,*7E,"DateTime":20250224202559}
{"gps":$GNGGA,145600.000,1258.41538,N,07909.87598,E,1,16,0.9,142.9,M,0.0,M,,*7D,"DateTime":20250224202601}
{"gps":$GNGGA,145602.000,1258.41401,N,07909.87602,E,1,17,0.9,142.8,M,0.0,M,,*74,"DateTime":20250224202603}
{"gps":$GNGGA,145604.000,1258.41274,N,07909.87586,E,1,17,0.9,142.9,M,0.0,M,,*78,"DateTime":20250224202605}
{"gps":$GNGGA,145606.000,1258.41149,N,07909.87548,E,1,17,0.9,143.0,M,0.0,M,,*7D,"DateTime":20250224202607}
{"gps":$GNGGA,145608.000,1258.41030,N,07909.87537,E,1,17,0.9,143.1,M,0.0,M,,*75,"DateTime":20250224202609}
{"gps":$GNGGA,145610.000,1258.40904,N,07909.87551,E,1,17,0.9,143.5,M,0.0,M,,*77,"DateTime":20250224202611}
{"gps":$GNGGA,145612.000,1258.40788,N,07909.87547,E,1,17,0.9,143.6,M,0.0,M,,*7B,"DateTime":20250224202613}
{"gps":$GNGGA,145614.000,1258.40656,N,07909.87554,E,1,17,0.9,143.9,M,0.0,M,,*72,"DateTime":20250224202615}
{"gps":$GNGGA,145617.000,1258.40469,N,07909.87547,E,1,17,0.9,144.0,M,0.0,M,,*73,"DateTime":20250224202618}
{"gps":$GNGGA,145619.000,1258.40350,N,07909.87556,E,1,17,0.9,144.1,M,0.0,M,,*71,"DateTime":20250224202620}
{"gps":$GNGGA,145622.000,1258.40153,N,07909.87566,E,1,17,0.9,144.0,M,0.0,M,,*7A,"DateTime":20250224202623}
{"gps":$GNGGA,145625.000,1258.39965,N,07909.87603,E,1,17,0.9,144.2,M,0.0,M,,*7C,"DateTime":20250224202626}
{"gps":$GNGGA,145628.000,1258.39777,N,07909.87595,E,1,17,0.9,144.3,M,0.0,M,,*71,"DateTime":20250224202629}
{"gps":$GNGGA,145631.000,1258.39581,N,07909.87585,E,1,17,0.9,144.6,M,0.0,M,,*76,"DateTime":20250224202631}
{"gps":$GNGGA,145632.000,1258.39514,N,07909.87595,E,1,17,0.9,144.9,M,0.0,M,,*77,"DateTime":20250224202632}
{"gps":$GNGGA,145633.000,1258.39444,N,07909.87600,E,1,17,0.9,145.0,M,0.0,M,,*75,"DateTime":20250224202633}
{"gps":$GNGGA,145634.000,1258.39372,N,07909.87608,E,1,17,0.9,145.4,M,0.0,M,,*7C,"DateTime":20250224202634}
{"gps":$GNGGA,145635.000,1258.39300,N,07909.87615,E,1,17,0.9,145.6,M,0.0,M,,*76,"DateTime":20250224202635}
{"gps":$GNGGA,145636.000,1258.39225,N,07909.87618,E,1,17,0.9,145.6,M,0.0,M,,*7E,"DateTime":20250224202636}
{"gps":$GNGGA,145637.000,1258.39150,N,07909.87615,E,1,17,0.9,145.7,M,0.0,M,,*72,"DateTime":20250224202636}
{"gps":$GNGGA,145638.000,1258.39078,N,07909.87619,E,1,17,0.9,145.9,M,0.0,M,,*74,"DateTime":20250224202638}
{"gps":$GNGGA,145639.000,1258.39003,N,07909.87633,E,1,17,0.9,146.1,M,0.0,M,,*7A,"DateTime":20250224202639}
{"gps":$GNGGA,145640.000,1258.38931,N,07909.87649,E,1,17,0.9,146.4,M,0.0,M,,*75,"DateTime":20250224202640}
{"gps":$GNGGA,145641.000,1258.38870,N,07909.87658,E,1,17,0.9,146.7,M,0.0,M,,*73,"DateTime":20250224202640}
{"gps":$GNGGA,145642.000,1258.38810,N,07909.87665,E,1,17,0.9,146.8,M,0.0,M,,*77,"DateTime":20250224202641}
{"gps":$GNGGA,145643.000,1258.38742,N,07909.87677,E,1,17,0.9,146.9,M,0.0,M,,*7C,"DateTime":20250224202642}
{"gps":$GNGGA,145644.000,1258.38675,N,07909.87673,E,1,17,0.9,146.9,M,0.0,M,,*7A,"DateTime":20250224202643}
{"gps":$GNGGA,145645.000,1258.38615,N,07909.87645,E,1,17,0.9,147.0,M,0.0,M,,*70,"DateTime":20250224202644}
{"gps":$GNGGA,145646.000,1258.38565,N,07909.87600,E,1,17,0.9,146.8,M,0.0,M,,*7F,"DateTime":20250224202646}
{"gps":$GNGGA,145647.000,1258.38531,N,07909.87549,E,1,17,0.9,146.6,M,0.0,M,,*7F,"DateTime":20250224202647}
{"gps":$GNGGA,145648.000,1258.38514,N,07909.87501,E,1,17,0.9,146.2,M,0.0,M,,*7F,"DateTime":20250224202648}
{"gps":$GNGGA,145649.000,1258.38513,N,07909.87488,E,1,17,0.9,146.2,M,0.0,M,,*79,"DateTime":20250224202648}
{"gps":$GNGGA,145650.000,1258.38511,N,07909.87475,E,1,17,0.9,146.3,M,0.0,M,,*70,"DateTime":20250224202649}
{"gps":$GNGGA,145651.000,1258.38507,N,07909.87465,E,1,17,0.9,146.2,M,0.0,M,,*76,"DateTime":20250224202650}
{"gps":$GNGGA,145652.000,1258.38503,N,07909.87453,E,1,17,0.9,146.2,M,0.0,M,,*74,"DateTime":20250224202651}
{"gps":$GNGGA,145653.000,1258.38466,N,07909.87373,E,1,17,0.9,146.0,M,0.0,M,,*70,"DateTime":20250224202652}
{"gps":$GNGGA,145654.000,1258.38418,N,07909.87314,E,1,17,0.9,145.9,M,0.0,M,,*75,"DateTime":20250224202654}
{"gps":$GNGGA,145655.000,1258.38374,N,07909.87255,E,1,17,0.9,145.8,M,0.0,M,,*7C,"DateTime":20250224202655}
{"gps":$GNGGA,145656.000,1258.38349,N,07909.87187,E,1,17,0.9,145.7,M,0.0,M,,*72,"DateTime":20250224202655}
{"gps":$GNGGA,145657.000,1258.38351,N,07909.87092,E,1,17,0.9,145.1,M,0.0,M,,*79,"DateTime":20250224202656}
{"gps":$GNGGA,145658.000,1258.38349,N,07909.87027,E,1,17,0.9,145.1,M,0.0,M,,*71,"DateTime":20250224202657}
{"gps":$GNGGA,145659.000,1258.38345,N,07909.86968,E,1,17,0.9,145.0,M,0.0,M,,*7E,"DateTime":20250224202658}
{"gps":$GNGGA,145700.000,1258.38338,N,07909.86913,E,1,17,0.9,144.9,M,0.0,M,,*7D,"DateTime":20250224202700}
{"gps":$GNGGA,145701.000,1258.38329,N,07909.86850,E,1,17,0.9,144.8,M,0.0,M,,*7B,"DateTime":20250224202701}
{"gps":$GNGGA,145702.000,1258.38315,N,07909.86788,E,1,16,0.9,144.8,M,0.0,M,,*7C,"DateTime":20250224202702}
{"gps":$GNGGA,145703.000,1258.38296,N,07909.86725,E,1,16,0.9,144.6,M,0.0,M,,*7E,"DateTime":20250224202703}
{"gps":$GNGGA,145704.000,1258.38279,N,07909.86654,E,1,16,0.9,144.1,M,0.0,M,,*78,"DateTime":20250224202704}
{"gps":$GNGGA,145705.000,1258.38279,N,07909.86589,E,1,16,0.9,143.6,M,0.0,M,,*7A,"DateTime":20250224202705}
{"gps":$GNGGA,145706.000,1258.38300,N,07909.86526,E,1,15,1.1,143.2,M,0.0,M,,*7D,"DateTime":20250224202705}
{"gps":$GNGGA,145707.000,1258.38314,N,07909.86464,E,1,15,1.1,142.9,M,0.0,M,,*74,"DateTime":20250224202706}
{"gps":$GNGGA,145708.000,1258.38314,N,07909.86396,E,1,15,1.1,142.6,M,0.0,M,,*7E,"DateTime":20250224202707}
{"gps":$GNGGA,145709.000,1258.38296,N,07909.86329,E,1,15,1.1,142.2,M,0.0,M,,*74,"DateTime":20250224202708}
{"gps":$GNGGA,145710.000,1258.38276,N,07909.86272,E,1,16,0.9,141.9,M,0.0,M,,*7F,"DateTime":20250224202709}
{"gps":$GNGGA,145711.000,1258.38247,N,07909.86212,E,1,16,0.9,141.4,M,0.0,M,,*77,"DateTime":20250224202710}
{"gps":$GNGGA,145712.000,1258.38211,N,07909.86153,E,1,15,1.0,140.9,M,0.0,M,,*76,"DateTime":20250224202711}
{"gps":$GNGGA,145713.000,1258.38182,N,07909.86092,E,1,15,1.0,140.3,M,0.0,M,,*78,"DateTime":20250224202712}
{"gps":$GNGGA,145714.000,1258.38161,N,07909.86031,E,1,15,1.0,140.1,M,0.0,M,,*79,"DateTime":20250224202714}
{"gps":$GNGGA,145715.000,1258.38133,N,07909.85972,E,1,15,1.0,139.7,M,0.0,M,,*7A,"DateTime":20250224202715}
{"gps":$GNGGA,145716.000,1258.38092,N,07909.85914,E,1,16,0.9,139.4,M,0.0,M,,*7B,"DateTime":20250224202716}
{"gps":$GNGGA,145717.000,1258.38074,N,07909.85856,E,1,16,0.9,139.1,M,0.0,M,,*70,"DateTime":20250224202717}
{"gps":$GNGGA,145718.000,1258.38060,N,07909.85792,E,1,16,0.9,138.5,M,0.0,M,,*78,"DateTime":20250224202718}
{"gps":$GNGGA,145719.000,1258.38050,N,07909.85736,E,1,16,0.9,138.1,M,0.0,M,,*70,"DateTime":20250224202719}
{"gps":$GNGGA,145720.000,1258.38050,N,07909.85733,E,1,16,0.9,138.1,M,0.0,M,,*7F,"DateTime":20250224202719}
{"gps":$GNGGA,145721.000,1258.38049,N,07909.85730,E,1,16,0.9,138.0,M,0.0,M,,*74,"DateTime":20250224202720}
{"gps":$GNGGA,145722.000,1258.38093,N,07909.85731,E,1,16,0.9,137.7,M,0.0,M,,*79,"DateTime":20250224202721}
{"gps":$GNGGA,145723.000,1258.38091,N,07909.85726,E,1,16,0.9,137.8,M,0.0,M,,*73,"DateTime":20250224202722}
{"gps":$GNGGA,145724.000,1258.38091,N,07909.85724,E,1,16,0.9,137.9,M,0.0,M,,*77,"DateTime":20250224202723}
{"gps":$GNGGA,145725.000,1258.38090,N,07909.85721,E,1,16,0.9,138.0,M,0.0,M,,*74,"DateTime":20250224202724}
{"gps":$GNGGA,145726.000,1258.38090,N,07909.85716,E,1,16,0.9,138.0,M,0.0,M,,*73,"DateTime":20250224202725}
{"gps":$GNGGA,145727.000,1258.38091,N,07909.85713,E,1,16,0.9,137.9,M,0.0,M,,*70,"DateTime":20250224202726}
{"gps":$GNGGA,145728.000,1258.38136,N,07909.85685,E,1,16,0.9,137.2,M,0.0,M,,*76,"DateTime":20250224202728}
{"gps":$GNGGA,145729.000,1258.38178,N,07909.85664,E,1,17,0.9,136.4,M,0.0,M,,*74,"DateTime":20250224202729}
{"gps":$GNGGA,145730.000,1258.38222,N,07909.85656,E,1,17,0.9,135.9,M,0.0,M,,*7F,"DateTime":20250224202730}
{"gps":$GNGGA,145731.000,1258.38275,N,07909.85645,E,1,17,0.9,135.6,M,0.0,M,,*71,"DateTime":20250224202731}
{"gps":$GNGGA,145732.000,1258.38274,N,07909.85640,E,1,15,0.9,135.7,M,0.0,M,,*75,"DateTime":20250224202732}
{"gps":$GNGGA,145733.000,1258.38274,N,07909.85634,E,1,15,0.9,135.7,M,0.0,M,,*77,"DateTime":20250224202733}
{"gps":$GNGGA,145734.000,1258.38273,N,07909.85628,E,1,15,0.9,135.7,M,0.0,M,,*7A,"DateTime":20250224202733}
{"gps":$GNGGA,145735.000,1258.38340,N,07909.85615,E,1,16,0.9,135.6,M,0.0,M,,*76,"DateTime":20250224202735}
{"gps":$GNGGA,145736.000,1258.38395,N,07909.85590,E,1,17,0.9,135.5,M,0.0,M,,*71,"DateTime":20250224202736}
{"gps":$GNGGA,145737.000,1258.38443,N,07909.85565,E,1,17,0.9,135.7,M,0.0,M,,*74,"DateTime":20250224202737}
{"gps":$GNGGA,145738.000,1258.38495,N,07909.85549,E,1,16,0.9,135.8,M,0.0,M,,*70,"DateTime":20250224202738}
{"gps":$GNGGA,145739.000,1258.38556,N,07909.85535,E,1,16,0.9,136.0,M,0.0,M,,*7F,"DateTime":20250224202739}
{"gps":$GNGGA,145740.000,1258.38615,N,07909.85517,E,1,16,0.9,136.1,M,0.0,M,,*74,"DateTime":20250224202739}
{"gps":$GNGGA,145741.000,1258.38671,N,07909.85501,E,1,16,0.9,136.4,M,0.0,M,,*75,"DateTime":20250224202740}
{"gps":$GNGGA,145742.000,1258.38731,N,07909.85485,E,1,17,0.9,136.6,M,0.0,M,,*7D,"DateTime":20250224202742}
{"gps":$GNGGA,145743.000,1258.38796,N,07909.85474,E,1,16,0.9,136.5,M,0.0,M,,*7D,"DateTime":20250224202743}
{"gps":$GNGGA,145744.000,1258.38855,N,07909.85463,E,1,17,0.9,136.3,M,0.0,M,,*7B,"DateTime":20250224202743}
{"gps":$GNGGA,145745.000,1258.38922,N,07909.85451,E,1,16,0.9,136.3,M,0.0,M,,*7B,"DateTime":20250224202744}
{"gps":$GNGGA,145746.000,1258.38981,N,07909.85437,E,1,16,0.9,136.1,M,0.0,M,,*73,"DateTime":20250224202745}
{"gps":$GNGGA,145747.000,1258.39046,N,07909.85422,E,1,17,0.9,136.0,M,0.0,M,,*75,"DateTime":20250224202747}
{"gps":$GNGGA,145748.000,1258.39109,N,07909.85413,E,1,17,0.9,135.8,M,0.0,M,,*79,"DateTime":20250224202748}
{"gps":$GNGGA,145749.000,1258.39175,N,07909.85403,E,1,17,0.9,135.6,M,0.0,M,,*7C,"DateTime":20250224202749}
{"gps":$GNGGA,145750.000,1258.39249,N,07909.85381,E,1,17,0.9,135.6,M,0.0,M,,*75,"DateTime":20250224202750}
{"gps":$GNGGA,145751.000,1258.39318,N,07909.85360,E,1,15,1.0,135.6,M,0.0,M,,*74,"DateTime":20250224202751}
{"gps":$GNGGA,145752.000,1258.39382,N,07909.85342,E,1,15,1.0,135.6,M,0.0,M,,*74,"DateTime":20250224202752}
{"gps":$GNGGA,145753.000,1258.39443,N,07909.85319,E,1,15,1.0,135.6,M,0.0,M,,*71,"DateTime":20250224202752}
{"gps":$GNGGA,145754.000,1258.39505,N,07909.85302,E,1,15,1.0,135.6,M,0.0,M,,*7F,"DateTime":20250224202754}
{"gps":$GNGGA,145755.000,1258.39576,N,07909.85286,E,1,16,0.9,135.8,M,0.0,M,,*72,"DateTime":20250224202755}
{"gps":$GNGGA,145756.000,1258.39647,N,07909.85270,E,1,15,1.0,136.0,M,0.0,M,,*79,"DateTime":20250224202756}
